{
	"type": "FeatureCollection",
	"features": [{
		"type": "Feature",
		"geometry": {
			"type": "Point",
			"coordinates": [-122.166149, 42.865508]
		},
		"properties": {
			"flush": true,
			"shower": true,
			"vault": false,
			"description": "Flush toilet, Shower",
			"title": "Mazama",
			"marker-size": "small"
		}
	}, {
		"type": "Feature",
		"geometry": {
			"type": "Point",
			"coordinates": [-122.342876, 43.063217]
		},
		"properties": {
			"flush": false,
			"shower": false,
			"vault": true,
			"description": "Vault toilet",
			"title": "Claude Lewis Sno-Park-USFS",
			"marker-size": "small"
		}
	}, {
		"type": "Feature",
		"geometry": {
			"type": "Point",
			"coordinates": [-122.037881, 42.879145]
		},
		"properties": {
			"flush": true,
			"shower": false,
			"vault": false,
			"description": "Flush toilet",
			"title": "Lost Creek",
			"marker-size": "small"
		}
	}, {
		"type": "Feature",
		"geometry": {
			"type": "Point",
			"coordinates": [-122.330322, 43.056641]
		},
		"properties": {
			"flush": false,
			"shower": false,
			"vault": true,
			"description": "Vault toilet",
			"title": "Hamaker",
			"marker-size": "small"
		}
	}, {
		"type": "Feature",
		"geometry": {
			"type": "Point",
			"coordinates": [-122.337174, 42.877807]
		},
		"properties": {
			"flush": false,
			"shower": false,
			"vault": true,
			"description": "Vault toilet",
			"title": "Huckleberry Mountain",
			"marker-size": "small"
		}
	}, {
		"type": "Feature",
		"geometry": {
			"type": "Point",
			"coordinates": [-122.463867, 42.889648]
		},
		"properties": {
			"flush": false,
			"shower": false,
			"vault": true,
			"description": "Vault toilet",
			"title": "Natural Bridge -USFS",
			"marker-size": "small"
		}
	}, {
		"type": "Feature",
		"geometry": {
			"type": "Point",
			"coordinates": [-122.433105, 42.919678]
		},
		"properties": {
			"flush": false,
			"shower": false,
			"vault": false,
			"description": "",
			"title": "Farewell Bend",
			"marker-size": "small"
		}
	}, {
		"type": "Feature",
		"geometry": {
			"type": "Point",
			"coordinates": [-121.924772, 42.884588]
		},
		"properties": {
			"flush": false,
			"shower": false,
			"vault": true,
			"description": "Vault toilet",
			"title": "Scott Creek",
			"marker-size": "small"
		}
	}, {
		"type": "Feature",
		"geometry": {
			"type": "Point",
			"coordinates": [-122.324644, 42.913045]
		},
		"properties": {
			"flush": false,
			"shower": false,
			"vault": true,
			"description": "Vault toilet",
			"title": "Thousand Springs Sno-Park-USFS",
			"marker-size": "small"
		}
	}, {
		"type": "Feature",
		"geometry": {
			"type": "Point",
			"coordinates": [-122.45, 42.9102777778]
		},
		"properties": {
			"flush": false,
			"shower": false,
			"vault": true,
			"description": "Vault toilet",
			"title": "Union Creek",
			"marker-size": "small"
		}
	}, {
		"type": "Feature",
		"geometry": {
			"type": "Point",
			"coordinates": [-122.4353305556, 42.9162388889]
		},
		"properties": {
			"flush": false,
			"shower": false,
			"vault": false,
			"description": "",
			"title": "Farewell Bend Campground",
			"marker-size": "small"
		}
	}]
}